City_ID,City,Lat,Lng,Max Temp,Humidity,Cloudiness,Wind Speed,Country,Date
0,grytviken,-54.2811,-36.5092,39.02,91,99,3.02,GS,1685673414
1,aripuana,-9.1667,-60.6333,71.92,99,100,2.06,BR,1685673414
2,morris,40.8334,-74.5329,68.85,74,0,0.0,US,1685673414
3,jamestown,42.097,-79.2353,74.84,46,0,8.05,US,1685673238
4,malindi,-3.2175,40.1191,76.06,86,6,8.59,KE,1685673209
5,robore,-18.3333,-59.75,66.43,92,0,2.06,BO,1685673415
6,zaidpur,26.8333,81.3333,80.67,24,15,9.15,IN,1685673415
7,pangoa,-12.1167,-73.0,68.43,90,27,1.68,PE,1685673416
8,warrnambool,-38.3833,142.4833,55.99,54,99,6.98,AU,1685673201
9,vorgashor,67.5833,63.95,56.48,73,36,10.42,RU,1685673416
10,edinburgh of the seven seas,-37.0676,-12.3116,53.35,60,100,18.77,SH,1685673416
11,okhotsk,59.3833,143.3,50.68,72,94,6.11,RU,1685673417
12,adamstown,-25.066,-130.1015,75.7,85,100,21.23,PN,1685673417
13,nova sintra,14.8667,-24.7167,68.14,79,4,17.47,CV,1685673417
14,waitangi,-43.9535,-176.5597,59.83,91,35,7.0,NZ,1685673417
15,tazovsky,67.4667,78.7,60.06,83,99,17.34,RU,1685673150
16,badger,64.8,-147.5333,50.25,65,100,3.44,US,1685673418
17,minot,48.2325,-101.2963,78.91,69,0,5.75,US,1685673311
18,bredasdorp,-34.5322,20.0403,55.85,97,75,4.38,ZA,1685673419
19,necochea,-38.5473,-58.7368,52.48,75,76,10.56,AR,1685673419
20,talnakh,69.4865,88.3972,45.21,94,100,15.77,RU,1685673419
21,puerto natales,-51.7236,-72.4875,35.01,87,100,3.18,CL,1685673419
22,tiksi,71.6872,128.8694,47.3,55,100,8.14,RU,1685673420
23,utrik,11.2278,169.8474,81.63,80,100,15.46,MH,1685673420
24,port-aux-francais,-49.35,70.2167,38.53,77,100,27.02,TF,1685673420
25,petropavlovsk-kamchatsky,53.0452,158.6483,48.79,66,75,8.95,RU,1685673420
26,bilibino,68.0546,166.4372,46.15,32,95,14.63,RU,1685673421
27,anadyr,64.75,177.4833,50.5,43,0,11.18,RU,1685673421
28,new norfolk,-42.7826,147.0587,56.88,61,29,4.0,AU,1685673422
29,altagracia de orituco,9.8601,-66.3814,75.27,84,57,3.4,VE,1685673422
30,hamilton,39.1834,-84.5333,74.03,56,0,0.0,US,1685673398
31,usinsk,65.9939,57.5281,57.07,65,3,15.99,RU,1685673423
32,babruysk,53.15,29.2333,54.0,92,32,8.55,BY,1685673423
33,dryden,49.7833,-92.7503,64.69,88,100,10.36,CA,1685673424
34,iquique,-20.2208,-70.1431,66.24,77,31,1.52,CL,1685673368
35,upata,8.0086,-62.3989,75.2,93,9,5.08,VE,1685673424
36,myeik,12.4333,98.6,86.56,68,86,9.53,MM,1685673425
37,sao vicente,-23.9631,-46.3919,69.98,26,22,2.75,BR,1685673425
38,blackmans bay,-43.0167,147.3167,55.69,67,14,2.1,AU,1685673425
39,rio grande,-32.035,-52.0986,62.46,90,0,5.41,BR,1685673426
40,holualoa,19.6228,-155.9522,76.84,88,100,9.22,US,1685673426
41,kantunilkin,21.0917,-87.45,73.72,93,0,2.28,MX,1685673426
42,brisas de zicatela,15.8369,-97.0419,86.52,66,40,5.75,MX,1685673426
43,gazi,35.3253,25.0669,62.94,96,75,11.5,GR,1685673427
44,port douglas,-16.4833,145.4667,77.4,62,93,11.25,AU,1685673427
45,iskateley,67.6803,53.1512,54.5,67,49,9.75,RU,1685673433
46,albany,42.6001,-73.9662,74.57,66,1,1.99,US,1685673267
47,jambi city,-1.6,103.6167,85.41,68,38,4.45,ID,1685673433
48,cabo san lucas,22.8909,-109.9124,78.1,64,20,10.36,MX,1685673156
49,port moresby,-9.4431,147.1797,87.22,66,40,13.8,PG,1685673434
50,sarupathar,26.1984,93.8094,96.28,38,25,1.72,IN,1685673434
51,lebu,-37.6167,-73.65,55.74,92,92,10.78,CL,1685673435
52,tanjung pandan,-2.75,107.65,88.39,58,84,10.47,ID,1685673435
53,fale old settlement,-9.3852,-171.2468,84.24,75,78,8.77,TK,1685673435
54,revda,56.801,59.9303,64.78,71,100,5.55,RU,1685673396
55,east london,-33.0153,27.9116,60.08,54,98,5.75,ZA,1685673213
56,laojunmiao,39.8333,97.7333,63.05,20,26,13.49,CN,1685673436
57,afaahiti,-17.75,-149.2833,76.87,67,9,12.08,PF,1685673436
58,young,-32.6833,-57.6333,58.89,91,30,8.25,UY,1685673437
59,west island,-12.1568,96.8225,82.38,78,40,16.11,CC,1685673438
60,yellowknife,62.456,-114.3525,68.52,19,40,9.22,CA,1685673438
61,wailua homesteads,22.0669,-159.378,79.23,83,75,11.5,US,1685673438
62,kapuskasing,49.4169,-82.4331,68.0,68,100,4.61,CA,1685673438
63,papatowai,-46.5619,169.4708,49.62,83,99,20.31,NZ,1685673439
64,hermanus,-34.4187,19.2345,60.8,89,84,8.41,ZA,1685673439
65,urazovo,50.0836,38.0395,56.14,75,0,3.02,RU,1685673439
66,kuusamo,65.9667,29.1833,33.84,93,100,11.5,FI,1685673440
67,port mathurin,-19.6833,63.4167,75.63,64,28,22.91,MU,1685673440
68,ushuaia,-54.8,-68.3,49.66,50,0,21.85,AR,1685673440
69,isafjordur,66.0755,-23.124,50.31,87,94,14.76,IS,1685673441
70,saipan,15.1355,145.701,88.5,100,40,24.16,MP,1685673441
71,yuzhno-kurilsk,44.0306,145.8556,57.15,77,94,11.68,RU,1685673441
72,naze,28.3667,129.4833,76.12,93,100,22.91,JP,1685673442
73,kainantu,-6.2887,145.8655,69.49,84,100,3.94,PG,1685673442
74,muang phon-hong,18.4928,102.4172,91.69,57,28,1.36,LA,1685673443
75,walvis bay,-22.9575,14.5053,54.09,93,0,1.14,NA,1685673443
76,haiku-pauwela,20.9219,-156.3051,80.62,68,40,21.85,US,1685673443
77,flying fish cove,-10.4217,105.6791,80.28,89,100,10.36,CX,1685673444
78,esquina,-30.0144,-59.5272,64.92,75,2,6.29,AR,1685673444
79,stanley,54.868,-1.6985,47.71,81,75,5.75,GB,1685673444
80,mount isa,-20.7333,139.5,82.17,32,5,4.61,AU,1685673445
81,choibalsan,48.0667,114.5,64.8,30,48,11.03,MN,1685673445
82,port lincoln,-34.7333,135.8667,66.69,54,98,12.93,AU,1685673445
83,thunder bay,48.4001,-89.3168,62.58,67,40,6.91,CA,1685673205
84,cockburn town,21.4612,-71.1419,81.75,81,86,6.93,TC,1685673309
85,dubbo,-32.25,148.6167,69.93,46,90,4.61,AU,1685673446
86,susuman,62.7833,148.1667,59.58,39,84,8.97,RU,1685673447
87,escarcega,18.6089,-90.7454,78.19,76,0,5.41,MX,1685673447
88,bethel,41.3712,-73.414,67.96,76,0,3.44,US,1685673447
89,sol'tsy,58.1239,30.3238,40.68,55,100,3.62,RU,1685673448
90,hawaiian paradise park,19.5933,-154.9731,73.04,96,100,0.0,US,1685673448
91,fort mcmurray,56.7268,-111.381,67.59,63,100,6.91,CA,1685673448
92,ilulissat,69.2167,-51.1,32.02,93,100,10.36,GL,1685673448
93,pangody,65.85,74.4859,61.23,87,80,20.09,RU,1685673174
94,nadym,65.5333,72.5167,60.8,82,99,27.22,RU,1685673449
95,eleskirt,39.8033,42.6736,50.92,73,15,1.03,TR,1685673449
96,saint-philippe,-21.3585,55.7679,67.59,79,2,10.22,RE,1685673451
97,geraldton,-28.7667,114.6,63.01,63,40,13.8,AU,1685673451
98,clarion,41.2148,-79.3853,72.57,65,0,5.41,US,1685673451
99,kargasok,59.0556,80.8572,73.04,55,99,12.08,RU,1685673451
100,qarawul,37.2202,68.7804,85.93,9,0,3.2,AF,1685673452
101,altai,46.3722,96.2583,41.36,73,92,7.94,MN,1685673452
102,bairnsdale,-37.8333,147.6167,57.06,60,22,1.01,AU,1685673453
103,la ronge,55.1001,-105.2842,62.85,72,75,11.5,CA,1685673454
104,praia da vitoria,38.7333,-27.0667,64.65,88,40,6.62,PT,1685673454
105,invercargill,-46.4,168.35,47.5,77,86,19.84,NZ,1685673454
106,ribeira grande,38.5167,-28.7,66.78,83,45,10.0,PT,1685673455
107,port elizabeth,-33.918,25.5701,56.32,95,0,4.61,ZA,1685673455
108,island harbour,50.724,-1.2758,53.15,78,20,7.0,GB,1685673455
109,sandnessjoen,66.0217,12.6316,40.64,90,86,3.0,NO,1685673456
110,puerto baquerizo moreno,-0.9,-89.6,77.07,81,12,8.79,EC,1685673456
111,dudinka,69.4058,86.1778,45.63,76,93,21.54,RU,1685673456
112,lyantor,61.6195,72.1555,70.18,54,0,21.92,RU,1685673456
113,merizo village,13.2658,144.6691,84.76,85,93,14.99,GU,1685673457
114,harper,4.375,-7.7169,77.02,90,100,4.25,LR,1685673457
115,anaconda,46.1285,-112.9423,58.19,91,90,3.18,US,1685673457
116,karratha,-20.7377,116.8463,79.2,31,0,13.94,AU,1685673457
117,taber,49.8167,-112.1518,59.2,75,98,11.5,CA,1685673458
118,iqaluit,63.7506,-68.5145,28.13,80,100,13.8,CA,1685673266
119,happy valley-goose bay,53.3168,-60.3315,39.51,65,100,13.8,CA,1685673243
120,kalajoki,64.25,23.95,40.91,97,100,17.74,FI,1685673458
121,margaret river,-33.95,115.0667,58.73,69,100,8.77,AU,1685673459
122,qarah bagh,34.9402,61.7759,76.55,17,5,5.84,AF,1685673459
123,rafsanjan,30.4067,55.9939,81.34,22,0,5.75,IR,1685673459
124,wenchang,30.904,118.4887,86.09,52,3,3.89,CN,1685673460
125,n'dalatando,-9.2978,14.9116,63.97,99,57,1.32,AO,1685673460
126,saldanha,-33.0117,17.9442,53.65,69,100,14.72,ZA,1685673460
127,amungan,15.3652,119.9582,85.8,75,49,10.51,PH,1685673460
128,kingston,17.997,-76.7936,83.35,87,20,4.61,JM,1685673367
129,udachny,66.4167,112.4,64.45,25,11,14.76,RU,1685673461
130,chibougamau,49.9168,-74.3659,69.42,64,75,6.91,CA,1685673461
131,spanish springs,39.6491,-119.7074,70.3,32,0,16.11,US,1685673462
132,novovarshavka,54.1721,74.6946,78.08,29,99,9.26,RU,1685673462
133,ekibastuz,51.6667,75.3667,76.82,23,4,4.72,KZ,1685673462
134,muravlenko,63.7898,74.523,66.65,68,11,29.26,RU,1685673463
135,garuhape,-26.8177,-54.9566,62.24,94,0,2.13,AR,1685673463
136,mahaddayweyne,2.9726,45.5347,73.29,97,50,6.38,SO,1685673463
137,college,64.8569,-147.8028,50.32,72,100,3.44,US,1685673463
138,san patricio,28.017,-97.5169,81.84,80,28,9.57,US,1685673464
139,kaduy,59.2,37.15,45.21,65,19,2.82,RU,1685673464
140,olinda,-8.0089,-34.8553,78.53,83,75,6.91,BR,1685673464
141,avarua,-21.2078,-159.775,75.25,57,55,5.75,CK,1685673465
142,namdrik,5.5994,168.1028,83.89,75,80,8.3,MH,1685673465
143,rakops,-21.0167,24.3333,61.32,30,11,5.03,BW,1685673465
144,caleta de carquin,-11.0925,-77.6267,69.51,82,11,10.85,PE,1685673465
145,sidi salim,31.271,30.7867,74.28,48,70,10.25,EG,1685673466
146,daru,-9.0763,143.2092,79.79,85,64,15.68,PG,1685673466
147,grand rapids,42.9634,-85.6681,75.61,87,36,4.97,US,1685673232
148,vallegrande,-18.4897,-64.1069,49.15,96,38,3.69,BO,1685673466
149,georgetown,5.4112,100.3354,89.53,77,20,4.61,MY,1685673284
150,baynjiwayn,35.6183,45.9541,63.43,37,0,3.89,IQ,1685673467
151,thompson,55.7435,-97.8558,64.56,68,100,4.61,CA,1685673467
152,wau,7.7029,27.9953,72.75,90,92,4.03,SS,1685673468
153,saveh,35.0213,50.3566,75.7,28,0,11.56,IR,1685673468
154,st. john's,47.5649,-52.7093,45.28,96,100,6.91,CA,1685673374
155,hotan,37.0997,79.9269,73.72,25,100,13.29,CN,1685673468
156,ghadamis,30.1337,9.5007,71.37,45,95,10.29,LY,1685673469
157,posto fiscal rolim de moura,-13.0833,-62.2667,73.36,84,48,0.81,BR,1685673469
158,kodiak,57.79,-152.4072,56.71,44,0,8.05,US,1685673469
159,el calafate,-50.3408,-72.2768,37.4,82,100,3.89,AR,1685673469
160,longyearbyen,78.2186,15.6401,31.84,64,0,9.22,SJ,1685673470
161,peterhead,57.5058,-1.7981,37.8,79,1,5.57,GB,1685673231
162,arraial do cabo,-22.9661,-42.0278,70.77,82,5,12.03,BR,1685673470
163,ust-nera,64.5667,143.2,63.68,43,6,2.08,RU,1685673470
164,peniche,39.3558,-9.3811,63.1,87,22,5.55,PT,1685673471
165,callao,-12.0667,-77.15,71.89,73,0,14.97,PE,1685673471
166,mejit,10.2753,170.8646,81.1,81,77,13.06,MH,1685673471
167,guerrero negro,27.9769,-114.0611,61.05,84,0,12.48,MX,1685673472
168,sitka,57.0531,-135.33,53.49,62,100,11.5,US,1685673472
169,mukalla,14.5425,49.1242,84.38,84,32,6.96,YE,1685673472
170,wabag,-5.4781,143.7021,68.5,67,71,4.12,PG,1685673472
171,isabela,6.7085,121.9711,89.65,64,87,3.13,PH,1685673473
172,tolanaro,-25.0319,46.9987,69.87,73,20,16.11,MG,1685673473
173,abong mbang,3.9833,13.1833,67.21,99,86,2.3,CM,1685673473
174,marsh harbour,26.5412,-77.0636,80.01,76,100,3.78,BS,1685673325
175,bousso,10.4795,16.7117,83.59,54,86,5.44,TD,1685673474
176,george town,5.4112,100.3354,89.53,79,20,4.61,MY,1685673456
177,zelenoborskiy,66.845,32.3622,36.77,89,100,18.28,RU,1685673475
178,la sarre,48.8002,-79.1996,63.3,92,75,4.41,CA,1685673475
179,majene,-3.5403,118.9707,84.33,72,21,8.77,ID,1685673315
180,sainte-anne-des-monts,49.124,-66.4924,64.27,68,43,6.91,CA,1685673475
181,mikashevichy,52.2173,27.476,53.55,94,18,7.52,BY,1685673476
182,bosanska krupa,44.8825,16.1514,56.8,95,33,2.3,BA,1685673476
183,loreto,22.2667,-101.9667,78.98,17,54,8.88,MX,1685673476
184,santa cruz,-17.8,-63.1667,67.46,94,40,3.44,BO,1685673476
185,ghat,24.9647,10.1728,76.95,26,0,7.36,LY,1685673177
186,cole harbour,44.6724,-63.4751,67.96,72,20,8.05,CA,1685673477
187,reserva,-24.6503,-50.8506,49.96,84,9,1.97,BR,1685673367
188,lihue,21.9789,-159.3672,79.84,79,75,11.5,US,1685673443
189,robertsport,6.7533,-11.3686,79.93,84,100,7.49,LR,1685673478
190,tambacounda,13.7539,-13.7586,84.54,64,100,12.95,SN,1685673478
191,urangan,-25.3,152.9,71.17,67,0,6.93,AU,1685673478
192,upper dir,35.2058,71.8756,65.19,59,0,2.3,PK,1685673478
193,ta`u,-14.2336,-169.5144,82.13,72,100,10.29,AS,1685673479
194,juneau,58.3019,-134.4197,51.8,90,100,6.91,US,1685673479
195,crane,31.3974,-102.3501,80.53,50,66,23.15,US,1685673484
196,olonkinbyen,70.9221,-8.7187,33.64,98,100,18.48,SJ,1685673485
197,isangel,-19.55,169.2667,80.71,78,75,4.61,VU,1685673485
198,klyuchi,52.2667,79.1667,75.87,29,5,6.17,RU,1685673485
199,puerto ayora,-0.7393,-90.3518,77.56,93,22,1.01,EC,1685673486
200,bel ombre,-4.6167,55.4167,80.44,74,40,11.5,SC,1685673486
201,atafu village,-8.5421,-172.5159,83.73,75,97,7.11,TK,1685673486
202,priob'ye,62.5206,65.5964,62.76,66,0,17.0,RU,1685673207
203,jaciara,-15.9653,-54.9683,72.03,72,89,3.0,BR,1685673487
204,yelizovo,53.1873,158.3805,50.14,66,75,8.95,RU,1685673487
205,mount pearl,47.5166,-52.7813,44.46,96,100,6.91,CA,1685673488
206,zhaotong,27.3167,103.7167,67.78,78,100,4.79,CN,1685673488
207,afif,23.9065,42.9172,77.81,49,100,8.46,SA,1685673488
208,nishinoomote,30.7333,131.0,77.56,100,75,18.41,JP,1685673489
209,kruisfontein,-34.0033,24.7314,56.3,83,98,5.39,ZA,1685673489
210,alofi,-19.0595,-169.9187,80.49,74,75,8.05,NU,1685673489
211,saint croix,17.7397,-64.7388,81.05,86,40,11.5,VI,1685673243
212,hirara,24.8,125.2833,82.26,83,75,20.71,JP,1685673490
213,qianzhou,28.3167,109.7167,81.45,70,94,2.42,CN,1685673490
214,banda aceh,5.5577,95.3222,86.85,61,64,9.55,ID,1685673490
215,masterton,-40.9597,175.6575,60.89,60,0,7.38,NZ,1685673491
216,enewetak,11.3474,162.3373,82.02,79,93,20.09,MH,1685673492
217,port alfred,-33.5906,26.891,60.94,64,34,7.16,ZA,1685673221
218,acarau,-2.8856,-40.12,77.86,88,5,8.66,BR,1685673492
219,ulaangom,49.9811,92.0667,62.76,35,39,9.13,MN,1685673493
220,vadso,70.0744,29.7487,38.28,81,75,6.91,NO,1685673493
221,kalaleh,37.3807,55.4916,71.2,88,75,4.61,IR,1685673493
222,polyarnyy,69.1989,33.4478,38.44,76,100,17.94,RU,1685673494
223,nuuk,64.1835,-51.7216,31.87,80,98,8.01,GL,1685673494
224,whitehorse,60.7161,-135.0538,57.02,29,40,18.41,CA,1685673345
225,papao,-17.75,-149.55,78.48,67,11,10.2,PF,1685673495
226,punta arenas,-53.15,-70.9167,46.51,66,0,16.11,CL,1685673383
227,khomeyn,33.6423,50.0789,63.52,35,0,5.35,IR,1685673495
228,olyokminsk,60.3736,120.4264,71.69,28,9,0.27,RU,1685673496
229,mbeni,-11.5014,43.3775,73.47,70,4,10.36,KM,1685673496
230,sicuani,-14.2694,-71.2261,42.93,43,0,5.75,PE,1685673496
231,dungarpur,23.8333,73.7167,85.75,55,0,14.41,IN,1685673497
232,balikpapan,-1.2675,116.8289,85.19,84,40,5.75,ID,1685673497
233,lindi,-10.0,39.7167,69.44,98,11,4.18,TZ,1685673497
234,walla walla,46.0646,-118.343,72.37,42,0,9.22,US,1685673234
235,pangai,-19.8,-174.35,78.91,69,75,8.05,TO,1685673498
236,baraut,29.1,77.2667,85.39,39,98,5.95,IN,1685673498
237,arroio dos ratos,-30.0772,-51.7292,58.35,95,0,0.87,BR,1685673499
238,yermentau,51.6214,73.1069,75.96,25,78,6.15,KZ,1685673499
239,dilling,12.05,29.65,78.62,60,65,8.21,SD,1685673499
240,faya-largeau,17.9257,19.1043,88.79,36,37,5.88,TD,1685673500
241,saynshand,44.8824,110.1163,64.06,36,100,9.24,MN,1685673500
242,inhambupe,-11.7844,-38.3531,69.35,97,51,4.34,BR,1685673500
243,constantia,44.1833,28.65,57.88,62,49,2.8,RO,1685673246
244,tacna,-18.0056,-70.2483,59.9,82,100,5.75,PE,1685673410
245,hithadhoo,-0.6,73.0833,82.6,72,100,7.49,MV,1685673501
246,queenstown,-31.8976,26.8753,44.51,69,21,6.15,ZA,1685673501
247,semdinli,37.3051,44.5742,48.24,51,55,0.89,TR,1685673502
248,lae,-6.7221,146.9847,81.27,76,86,6.15,PG,1685673502
249,gazojak,41.1875,61.4036,82.51,12,69,13.35,TM,1685673502
250,hammerfest,70.6634,23.6821,36.05,87,75,1.14,NO,1685673503
251,miquelon,47.0975,-56.3814,46.4,80,78,5.55,PM,1685673503
252,mek'ele,13.4967,39.4753,63.81,66,74,6.87,ET,1685673503
253,sola,-13.8833,167.55,81.07,80,99,12.33,VU,1685673504
254,vila velha,-20.3297,-40.2925,71.55,96,20,4.61,BR,1685673504
255,cidade velha,14.9167,-23.6167,72.07,83,20,11.5,CV,1685673510
256,dzhangala,49.2167,50.3333,70.43,59,0,20.74,KZ,1685673510
257,mana,5.6592,-53.7767,77.32,91,25,6.69,GF,1685673511
258,al jawf,29.5,38.75,79.23,26,62,10.04,SA,1685673511
259,krasnokholm,51.5979,54.1567,78.73,39,76,5.68,RU,1685673511
260,severo-yeniseyskiy,60.3725,93.0408,70.2,39,94,7.74,RU,1685673512
261,sao paulo de olivenca,-3.3783,-68.8725,73.78,99,99,1.9,BR,1685673512
262,aasiaat,68.7098,-52.8699,30.88,86,100,13.42,GL,1685673512
263,harstad,68.799,16.5293,39.15,100,100,10.0,NO,1685673513
264,antsiranana,-12.2787,49.2917,74.05,66,15,16.11,MG,1685673513
265,manga,11.6636,-1.0731,81.73,67,65,14.76,BF,1685673513
266,jumla,29.2747,82.1838,65.55,37,58,4.59,NP,1685673514
267,minas de marcona,-15.2119,-75.1103,57.0,83,18,9.37,PE,1685673514
268,arkhangel'sk,64.5401,40.5433,42.78,90,78,4.5,RU,1685673285
269,kimbe,-5.5502,150.1429,86.45,73,73,2.1,PG,1685673515
270,inhambane,-23.865,35.3833,71.87,87,69,7.49,MZ,1685673516
271,hasaki,35.7333,140.8333,73.22,93,100,27.27,JP,1685673516
272,bude,50.8243,-4.5413,52.05,86,15,4.0,GB,1685673516
273,tual,-5.6667,132.75,80.85,79,86,19.66,ID,1685673516
274,kedrovyy,56.1667,91.8167,73.87,42,56,7.31,RU,1685673517
275,murzuq,25.9155,13.9184,77.05,29,0,10.36,LY,1685673517
276,cangzhou,38.3167,116.8667,80.62,28,77,10.78,CN,1685673517
277,whakatane,-37.9585,176.9854,64.51,87,93,4.0,NZ,1685673518
278,uturoa,-16.7333,-151.4333,76.48,64,6,10.83,PF,1685673518
279,keflavik,64.0049,-22.5624,49.86,100,100,10.36,IS,1685673518
280,axim,4.8699,-2.2405,76.37,87,94,3.38,GH,1685673518
281,kenai,60.5544,-151.2583,55.49,51,100,19.57,US,1685673524
282,nova vicosa,-17.8919,-39.3719,72.93,89,26,1.43,BR,1685673524
283,yurty,56.0498,97.6348,71.24,35,62,7.65,RU,1685673524
284,opuwo,-18.0607,13.84,58.06,48,0,2.98,NA,1685673525
285,nuku'alofa,-21.1333,-175.2,77.34,65,20,11.5,TO,1685673525
286,uacu cungo,-11.3634,15.1208,61.27,83,28,2.15,AO,1685673525
287,lobito,-12.3481,13.5456,69.3,87,1,3.38,AO,1685673525
288,mount gambier,-37.8333,140.7667,58.55,57,51,6.33,AU,1685673526
289,berdigestyakh,62.0989,126.6992,65.95,34,29,7.94,RU,1685673526
290,hilo,19.7297,-155.09,74.62,96,100,1.99,US,1685673526
291,konarka,19.9,86.1167,88.2,58,88,5.61,IN,1685673527
292,al hufuf,25.3646,49.5653,84.54,26,0,9.22,SA,1685673504
293,acapulco de juarez,16.8634,-99.8901,84.02,70,20,9.22,MX,1685673527
294,betong,5.7743,101.0723,87.8,59,74,2.21,TH,1685673527
295,taoudenni,22.6783,-3.9836,83.01,10,100,10.4,ML,1685673528
296,akureyri,65.6835,-18.0878,57.13,67,75,12.66,IS,1685673528
297,waingapu,-9.6567,120.2641,82.33,60,100,13.11,ID,1685673528
298,tralee,52.2704,-9.7026,51.42,93,7,4.81,IE,1685673528
299,priozersk,61.0393,30.1291,41.11,95,2,5.57,RU,1685673529
300,lishui,28.4604,119.9103,87.4,61,37,5.46,CN,1685673529
301,teruel,40.6667,-0.6667,46.94,77,56,2.15,ES,1685673529
302,westport,41.1415,-73.3579,69.03,83,0,5.75,US,1685673433
303,kapa'a,22.0752,-159.319,80.58,83,75,11.5,US,1685673530
304,yreka,41.7354,-122.6345,69.98,29,0,13.8,US,1685673530
305,dunedin,-45.8742,170.5036,51.21,59,8,18.32,NZ,1685673530
306,tosontsengel,48.7567,98.2839,47.37,64,100,8.41,MN,1685673531
307,kolonia town,6.964,158.206,84.31,79,100,3.44,FM,1685673531
308,touros,-5.1989,-35.4608,76.21,91,57,8.66,BR,1685673531
309,namibe,-15.1961,12.1522,65.84,71,0,10.8,AO,1685673532
310,nong bua,15.8646,100.5858,93.88,48,33,1.83,TH,1685673533
311,colonia,50.9333,6.95,52.83,71,100,5.75,DE,1685673309
312,bismarck,46.8083,-100.7837,74.26,64,0,6.91,US,1685673300
313,ulladulla,-35.35,150.4667,65.77,65,82,4.52,AU,1685673534
314,kalmunai,7.4167,81.8167,84.69,72,90,5.26,LK,1685673534
315,weno,7.4515,151.8468,85.95,89,100,11.5,FM,1685673534
316,nikolayevka,53.1257,47.2041,57.52,84,100,5.23,RU,1685673534
317,ma'rib,15.4591,45.3253,81.59,26,42,9.8,YE,1685673535
318,le vauclin,14.5452,-60.8388,81.84,83,20,10.36,MQ,1685673535
319,ciudad sabinas hidalgo,26.5,-100.1667,80.15,75,86,6.96,MX,1685673535
320,kostomuksha,64.571,30.5767,36.41,74,6,6.02,RU,1685673536
321,gadzhiyevo,69.2551,33.3362,38.16,75,100,17.13,RU,1685673536
322,shiyan,32.6475,110.7781,71.46,69,100,3.33,CN,1685673371
323,khilok,51.3674,110.4676,64.04,32,66,6.64,RU,1685673536
324,lompoc,34.6391,-120.4579,61.79,78,100,11.5,US,1685673537
325,labrador city,52.9463,-66.9114,44.51,70,75,11.5,CA,1685673537
326,mil'kovo,55.6078,37.7956,52.52,74,11,2.51,RU,1685673537
327,kavaratti,10.5669,72.642,84.0,75,99,11.74,IN,1685673538
328,kralendijk,12.15,-68.2667,82.38,83,29,19.57,BQ,1685673538
329,shahin dezh,36.6793,46.5669,62.33,35,32,3.36,IR,1685673538
330,floro,61.5996,5.0328,42.87,70,23,6.91,NO,1685673538
331,beberibe,-4.1797,-38.1306,77.38,88,31,8.81,BR,1685673539
332,tamalpais valley,37.8796,-122.5458,64.78,77,0,11.01,US,1685673539
333,coquimbo,-29.9533,-71.3436,58.73,88,100,3.44,CL,1685673384
334,pervomayskoye,43.919,46.7102,67.46,69,1,4.21,RU,1685673539
335,birjand,32.8663,59.2211,66.67,11,0,6.91,IR,1685673540
336,pagar alam,-4.0167,103.2667,82.31,61,53,3.76,ID,1685673540
337,loiza,18.4313,-65.8802,83.07,82,20,9.22,PR,1685673540
338,tamandare,-8.7597,-35.1047,76.73,86,12,5.46,BR,1685673540
339,stephenville,32.2207,-98.2023,78.93,64,0,8.05,US,1685673538
340,sake,-1.5736,29.045,61.14,93,55,0.67,CD,1685673541
341,el fahs,36.3742,9.9065,62.44,85,34,2.82,TN,1685673541
342,emmett,43.8735,-116.4993,80.49,26,26,5.21,US,1685673281
343,fortuna,40.5982,-124.1573,57.54,76,40,14.97,US,1685673542
344,tres palos,18.1833,-101.6167,75.25,71,0,3.91,MX,1685673542
345,kerikeri,-35.2268,173.9474,63.03,81,88,8.81,NZ,1685673543
346,ad dabbah,18.05,30.95,88.3,10,3,4.88,SD,1685673543
347,shima,24.4478,117.8111,89.62,65,42,0.98,CN,1685673511
348,smara,26.7384,-11.6719,67.53,72,0,9.22,EH,1685673544
349,port blair,11.6667,92.75,84.24,79,40,8.05,IN,1685673544
350,dalandzadgad,43.5708,104.425,58.87,43,18,9.15,MN,1685673545
351,juticalpa,14.65,-86.2,87.94,91,94,2.95,HN,1685673545
352,nadi,-17.8,177.4167,84.2,74,75,12.66,FJ,1685673365
353,panevezys,55.7333,24.35,38.62,95,100,9.57,LT,1685673546
354,buarcos,40.166,-8.8768,61.66,94,84,2.04,PT,1685673546
355,tofol,5.3248,163.0078,89.38,70,75,3.44,FM,1685673546
356,markovo,57.3206,107.0881,69.28,31,61,6.24,RU,1685673547
357,zuenoula,7.4292,-6.0431,73.71,96,100,3.78,CI,1685673547
358,bamusso,4.4591,8.9027,77.11,91,100,0.69,CM,1685673547
359,canals,38.9625,-0.5844,62.76,88,84,1.01,ES,1685673547
360,brookings,44.3114,-96.7984,73.4,68,0,5.75,US,1685673548
361,panaba,21.2833,-88.2667,76.41,85,1,6.15,MX,1685673548
362,timbuktu,16.7735,-3.0074,88.63,17,99,6.8,ML,1685673548
363,kitimat,54.0524,-128.6534,62.98,64,100,3.0,CA,1685673549
364,cajabamba,-7.6167,-78.05,51.58,78,90,4.63,PE,1685673554
365,diego martin,10.7005,-61.5342,76.28,84,10,5.79,TT,1685673554
366,mushie,-3.0167,16.9,73.83,84,86,3.24,CD,1685673555
367,yurgamysh,55.3714,64.4656,77.25,47,79,3.91,RU,1685673555
368,tura,25.5198,90.2201,88.27,51,2,8.1,IN,1685673556
369,erumaippatti,11.1667,78.2833,83.32,67,96,7.76,IN,1685673557
370,coronel dorrego,-38.7187,-61.2873,54.55,66,84,12.91,AR,1685673558
371,prince rupert,54.3161,-130.3201,55.09,73,100,5.75,CA,1685673558
372,nizhnyaya tavda,57.6731,66.1725,71.94,61,35,5.1,RU,1685673558
373,santa marta,11.2408,-74.199,78.85,89,40,11.5,CO,1685673558
374,remire-montjoly,4.9167,-52.2667,75.24,100,0,0.0,GF,1685673559
375,darwin,-12.4611,130.8418,86.9,58,40,10.36,AU,1685673305
376,tottori,35.5,134.2333,71.67,94,75,3.44,JP,1685673476
377,puerto leguizamo,-0.1934,-74.7819,71.91,99,100,3.51,CO,1685673560
378,cidreira,-30.1811,-50.2056,63.12,82,0,5.77,BR,1685673560
379,baruun-urt,46.6806,113.2792,63.32,29,46,13.6,MN,1685673560
380,mccook,40.2019,-100.6257,71.65,64,0,8.05,US,1685673560
381,nikolayevsk,50.0282,45.4595,56.61,92,100,13.96,RU,1685673561
382,yaren,-0.5472,166.916,85.51,69,69,9.69,NR,1685673561
383,novomykolayivka,47.9781,35.9102,56.43,71,10,2.44,UA,1685673561
384,lakhipur,26.0299,90.3041,93.9,40,3,4.7,IN,1685673562
385,cuyo,10.8525,121.0086,84.15,78,100,14.74,PH,1685673562
386,alvaraes,-3.2208,-64.8042,73.24,97,91,1.23,BR,1685673562
387,dalai,45.5,124.3,74.23,25,3,11.34,CN,1685673563
388,an nuhud,12.7,28.4333,79.48,62,54,6.55,SD,1685673563
389,qarqaraly,49.4058,75.4742,65.93,33,0,14.99,KZ,1685673563
390,shingu,33.7333,135.9833,74.3,97,100,20.98,JP,1685673564
391,baidoa,3.1138,43.6498,69.42,98,45,8.55,SO,1685673564
392,jayapura,-2.5333,140.7,88.99,87,100,8.16,ID,1685673564
393,palikir - national government center,6.9248,158.1611,83.25,79,100,3.44,FM,1685673565
394,slave lake,55.2834,-114.769,60.78,55,40,5.75,CA,1685673565
395,alamosa,37.4695,-105.87,51.78,58,20,8.05,US,1685673565
396,quthing,-30.4,27.7003,38.95,76,22,2.1,LS,1685673566
397,taupo,-38.6833,176.0833,55.65,77,64,14.2,NZ,1685673566
398,eirunepe,-6.6603,-69.8736,72.54,98,99,1.66,BR,1685673342
399,zaragoza,41.6561,-0.8773,63.05,75,75,6.91,ES,1685673355
400,broken hill,-31.95,141.4333,70.2,35,100,11.86,AU,1685673567
401,katsuura,35.1333,140.3,73.42,95,100,26.64,JP,1685673272
402,sikonge,-5.6333,32.7667,61.77,79,6,2.62,TZ,1685673567
403,shenjiamen,29.9576,122.298,72.72,80,7,13.65,CN,1685673567
404,igbor,7.4527,8.6098,76.57,85,100,7.47,NG,1685673568
405,colombelles,49.2049,-0.2957,53.94,82,100,5.75,FR,1685673568
406,enoch,37.7733,-113.0244,62.85,44,0,5.75,US,1685673569
407,al kharj,24.155,47.3346,86.58,26,77,7.72,SA,1685673569
408,moundou,8.5667,16.0833,77.94,67,90,4.56,TD,1685673569
409,qaqortoq,60.7167,-46.0333,40.24,99,100,10.94,GL,1685673570
410,maksatikha,57.797,35.8825,45.05,64,19,1.88,RU,1685673570
411,alcantara,-2.4089,-44.4147,79.0,86,2,4.76,BR,1685673570
412,zheshart,62.0731,49.5733,56.75,67,57,8.19,RU,1685673570
413,paita,-5.0892,-81.1144,73.89,84,23,8.39,PE,1685673571
414,goure,13.9835,10.2704,87.69,34,100,6.02,NE,1685673571
415,pacific grove,36.6177,-121.9166,60.21,83,100,9.22,US,1685673571
416,ad dilam,23.9915,47.1627,86.41,27,81,4.23,SA,1685673572
417,rongelap,11.1635,166.8941,81.27,82,100,19.3,MH,1685673572
418,baise city,23.8997,106.6133,93.34,99,92,3.0,CN,1685673572
419,nar'yan-mar,67.6713,53.087,54.5,67,51,9.6,RU,1685673573
420,wynyard,-41.0,145.7167,54.41,57,100,6.33,AU,1685673573
421,long beach,33.767,-118.1892,66.33,80,100,11.5,US,1685673573
422,al ghayzah,16.2079,52.176,84.16,75,10,5.77,YE,1685673573
423,sarangani,5.4033,125.4636,84.34,77,94,8.16,PH,1685673574
424,bayanga,7.5214,124.2522,84.2,60,100,5.46,PH,1685673574
425,howard springs,-12.497,131.047,86.83,42,81,3.02,AU,1685673574
426,vilyuysk,63.7553,121.6247,65.77,28,0,5.14,RU,1685673575
427,elko,41.0002,-115.5012,53.62,84,53,7.0,US,1685673575
428,mar del plata,-38.0023,-57.5575,54.95,77,0,1.01,AR,1685673406
429,san julian,21.0167,-102.1667,74.68,30,2,16.58,MX,1685673575
430,quibala,-10.7337,14.98,61.43,94,1,2.06,AO,1685673576
431,agua dulce,18.1333,-94.1333,80.38,83,0,7.96,MX,1685673576
432,nema,57.5067,50.5011,57.87,78,18,3.65,RU,1685673576
433,vilyuchinsk,52.9306,158.4028,50.27,93,100,4.12,RU,1685673577
434,alice springs,-23.7,133.8833,76.55,18,0,9.22,AU,1685673577
435,tsiombe,-25.3,45.4833,63.3,81,0,5.39,MG,1685673577
436,fort bragg,35.139,-79.006,70.38,90,75,4.61,US,1685673578
437,bereeda,11.8704,51.0579,85.91,71,33,3.06,SO,1685673578
438,oranjemund,-28.55,16.4333,54.55,71,60,8.61,NA,1685673578
439,ovruch,51.3246,28.8035,54.45,85,9,6.42,UA,1685673578
440,kone,-21.0595,164.8658,78.24,66,80,8.03,NC,1685673579
441,senador jose porfirio,-2.5908,-51.9542,78.48,79,94,1.19,BR,1685673579
442,madang,-5.2246,145.7966,83.59,77,100,9.44,PG,1685673580
443,nhamunda,-2.1861,-56.7131,75.87,85,32,2.84,BR,1685673580
444,blackwater,-23.5833,148.8833,77.02,38,0,8.61,AU,1685673580
445,knokke-heist,51.3333,3.3333,52.25,58,90,14.72,BE,1685673580
446,valparaiso,-33.0393,-71.6273,59.0,69,75,3.44,CL,1685673399
447,malvan,16.0667,73.4667,85.05,71,50,9.01,IN,1685673581
448,kadipur,26.1667,82.3833,96.46,22,0,8.9,IN,1685673581
449,chinde,26.8418,88.0763,79.54,33,0,4.88,NP,1685673582
450,homer,59.6425,-151.5483,53.49,52,75,13.0,US,1685673582
451,lamu,-2.2717,40.902,75.42,82,5,9.26,KE,1685673582
452,ati,13.2154,18.3353,90.95,38,95,8.46,TD,1685673582
453,fenghuang,27.9356,109.5996,74.68,81,99,1.57,CN,1685673583
454,vila franca do campo,37.7167,-25.4333,63.01,90,61,3.27,PT,1685673583
455,horta,38.5333,-28.6333,66.02,83,45,10.0,PT,1685673583
456,voinesti,47.0667,27.4167,60.67,75,11,4.56,RO,1685673584
457,cavalaire-sur-mer,43.174,6.5272,62.42,89,31,3.62,FR,1685673584
458,yako,12.9667,-2.2667,86.9,53,89,12.59,BF,1685673584
459,zaoyang,32.1272,112.7542,76.77,61,100,8.16,CN,1685673584
460,nemuro,43.3236,145.575,53.53,93,100,22.7,JP,1685673585
461,wuwei,37.9281,102.6414,58.1,66,100,2.3,CN,1685673585
462,waynesboro,38.0685,-78.8895,65.59,78,0,0.0,US,1685673586
463,sur,22.5667,59.5289,91.36,47,0,11.23,OM,1685673587
464,sim,54.993,57.6982,65.1,93,100,2.98,RU,1685673587
465,santa ana,33.7456,-117.8678,66.87,77,75,6.91,US,1685673587
466,okap,19.7578,-72.2042,77.31,91,100,6.15,HT,1685673587
467,nam som,17.7704,102.1895,87.1,46,90,3.74,TH,1685673506
468,tarauaca,-8.1614,-70.7656,71.29,96,18,1.83,BR,1685673588
469,zarate,-34.0981,-59.0286,64.96,10,100,6.93,AR,1685673588
470,grand-bassam,5.2118,-3.7388,76.96,87,100,5.3,CI,1685673589
471,zhongxiang,31.1661,112.5831,76.59,73,100,5.5,CN,1685673589
472,labytnangi,66.6572,66.4183,59.7,69,64,15.95,RU,1685673589
473,pesqueira,-8.3578,-36.6964,65.82,99,14,3.38,BR,1685673589
474,thinadhoo,0.5333,72.9333,83.28,72,97,7.43,MV,1685673590
475,egilsstadir,65.2653,-14.3948,53.51,66,0,2.3,IS,1685673590
476,shurugwi,-19.6702,30.0059,59.23,63,65,2.28,ZW,1685673590
477,broome,42.2506,-75.833,69.42,70,0,2.24,US,1685673590
478,kirakira,-10.4544,161.9205,85.08,74,100,8.55,SB,1685673591
479,leava,-14.3,-178.1667,83.34,70,95,16.49,WF,1685673591
480,carutapera,-1.195,-46.02,76.39,89,0,4.52,BR,1685673592
481,aboisso,5.4678,-3.2071,75.43,96,98,2.91,CI,1685673597
482,la passe,45.5549,-0.8967,64.63,87,16,7.14,FR,1685673597
483,summit,41.1167,-81.5332,71.55,64,0,5.08,US,1685673597
484,laguna,38.421,-121.4238,79.39,52,0,12.66,US,1685673598
485,kailua-kona,19.6406,-155.9956,80.56,88,100,9.22,US,1685673355
486,itoman,26.1247,127.6694,79.18,94,75,34.52,JP,1685673598
487,san antonio de pale,-1.4014,5.6325,78.84,88,51,12.08,GQ,1685673598
488,saint-pierre,-21.3393,55.4781,67.68,60,0,10.36,RE,1685673599
489,itabuna,-14.7856,-39.2803,69.21,99,100,1.01,BR,1685673599
490,la malbaie,47.6575,-70.1559,67.05,80,91,2.98,CA,1685673375
491,gilgit,35.9221,74.3087,60.49,87,100,3.04,PK,1685673599
492,lodja,-3.4833,23.4333,69.08,65,60,1.66,CD,1685673600
493,ca mau,9.1769,105.15,91.31,55,72,11.05,VN,1685673600
494,cannonvale,-20.2833,148.7,72.79,63,96,11.56,AU,1685673600
495,lijiang,26.8688,100.2207,77.45,36,10,4.74,CN,1685673601
496,karukh,34.4811,62.5863,75.02,16,7,7.81,AF,1685673601
497,worland,44.0169,-107.9554,59.67,82,100,11.5,US,1685673602
498,newman,37.3138,-121.0208,82.74,51,0,8.41,US,1685673603
499,lukhovitsy,54.9728,39.0361,55.58,78,67,4.12,RU,1685673603
500,cody,44.5263,-109.0565,66.92,50,0,5.75,US,1685673603
501,kennett,36.2362,-90.0556,79.03,64,0,1.99,US,1685673604
502,glendive,47.1053,-104.7125,78.42,65,0,4.61,US,1685673604
503,montana,43.4125,23.225,59.38,83,78,2.95,BG,1685673306
504,kununurra,-15.7667,128.7333,82.38,32,27,6.91,AU,1685673490
505,carrigaline,51.8117,-8.3986,53.35,82,20,4.61,IE,1685673605
506,kashgar,39.4547,75.9797,70.81,26,20,8.95,CN,1685673605
507,nagqu,31.5,92.0,53.4,35,37,11.21,CN,1685673606
508,pecos,31.4229,-103.4932,87.3,47,0,18.41,US,1685673606
509,nkongsamba,4.9547,9.9404,66.58,97,99,0.78,CM,1685673606
510,mayahi,13.9553,7.6712,86.47,43,100,9.08,NE,1685673607
511,ghazni,33.5536,68.4269,63.36,25,6,5.06,AF,1685673607
512,chonchi,-42.6128,-73.8092,52.81,81,33,12.59,CL,1685673607
513,sisimiut,66.9395,-53.6735,30.07,92,100,9.31,GL,1685673608
514,baranchinskiy,58.1617,59.6991,63.46,64,100,1.32,RU,1685673608
515,luderitz,-26.6481,15.1594,52.84,74,89,6.69,NA,1685673608
516,kismayo,-0.3582,42.5454,78.6,82,11,9.24,SO,1685673609
517,sinabang,2.4803,96.3801,84.31,72,81,4.65,ID,1685673609
518,el jadid,33.2549,-8.506,67.19,79,76,0.94,MA,1685673610
519,kiunga,-6.1219,141.2906,85.17,69,83,2.17,PG,1685673610
520,aswan,24.0934,32.907,88.9,19,0,3.44,EG,1685673610
521,randfontein,-26.1844,27.702,43.7,50,0,1.86,ZA,1685673611
522,mhamid,29.82,-5.72,73.02,24,0,6.35,MA,1685673611
523,quellon,-43.1167,-73.6167,50.25,87,75,14.97,CL,1685673611
524,bamna,23.0833,74.7667,86.38,49,0,14.34,IN,1685673612
525,prince george,53.9166,-122.753,65.64,25,0,8.05,CA,1685673612
526,termas de rio hondo,-27.4998,-64.8604,65.39,79,9,11.97,AR,1685673612
527,messaad,34.1543,3.5031,67.53,45,99,1.97,DZ,1685673612
528,tortoli,39.9256,9.6572,60.62,77,0,12.66,IT,1685673613
529,mareeba,-17.0,145.4333,81.45,58,100,6.53,AU,1685673613
530,ouadda,8.0777,22.4007,67.23,92,85,3.18,CF,1685673613
531,ulsteinvik,62.3432,5.8487,44.76,81,12,5.01,NO,1685673614
532,adrar,20.5022,-10.0711,77.79,19,99,10.22,MR,1685673614
533,kelapa sawit,1.6698,103.5327,90.21,69,20,3.44,MY,1685673614
534,aykhal,66.0,111.5,60.03,27,34,17.27,RU,1685673615
535,puerto lleras,3.0223,-73.4044,71.44,99,96,2.26,CO,1685673615
536,mancio lima,-7.6142,-72.8958,72.81,89,51,0.47,BR,1685673615
537,pisco,-13.7,-76.2167,68.05,77,0,8.05,PE,1685673616
538,victoria point,-27.5833,153.3,76.8,65,0,5.99,AU,1685673616
539,aleksandrovskoye,44.7142,43.0008,61.79,87,1,1.12,RU,1685673616
540,malango,-2.9627,119.9001,82.96,57,29,4.43,ID,1685673617
541,martapura,-3.4167,114.85,86.09,70,20,2.3,ID,1685673617
542,ginir,7.1333,40.7,55.81,86,72,2.89,ET,1685673622
543,ancud,-41.8697,-73.8203,52.12,80,53,24.83,CL,1685673627
544,kichmengskiy gorodok,59.9816,45.7854,55.47,71,72,6.8,RU,1685673628
545,ivdel',60.6911,60.4206,63.48,53,23,5.88,RU,1685673628
546,mikuni,36.2171,136.1519,69.71,97,100,12.26,JP,1685673628
547,puerto lempira,15.2667,-83.7667,77.99,89,68,6.6,HN,1685673629
548,troitsko-pechorsk,62.7084,56.1964,55.9,76,1,7.29,RU,1685673629
549,es castell,39.8795,4.2854,63.28,94,0,4.61,ES,1685673629
550,zag,46.9441,99.165,46.45,52,84,6.49,MN,1685673630
551,sorong,-0.8833,131.25,85.93,70,72,5.23,ID,1685673630
552,gunjur,13.2019,-16.7339,77.07,88,40,5.75,GM,1685673630
553,zeya,53.75,127.2667,59.65,59,100,9.13,RU,1685673631
554,kirensk,57.7853,108.1119,69.67,35,63,2.1,RU,1685673631
555,inyonga,-6.7167,32.0667,62.51,76,15,4.65,TZ,1685673631
556,saugor,23.8333,78.7167,91.4,30,0,12.55,IN,1685673632
557,guacamayas,18.0167,-102.2167,78.82,72,3,4.7,MX,1685673632
